{
"type": "FeatureCollection",
"name": "Cities-Big",
"crs": { "type": "name", "properties": { "name": "urn:ogc:def:crs:OGC:1.3:CRS84" } },
"features": [
{ "type": "Feature", "properties": { "Name": "Washington, DC", "Latitude": 38.9072, "Longitude": -77.0369 }, "geometry": { "type": "Point", "coordinates": [ -77.0369, 38.9072 ] } },
{ "type": "Feature", "properties": { "Name": "Baltimore", "Latitude": 39.2904, "Longitude": -76.6122 }, "geometry": { "type": "Point", "coordinates": [ -76.6122, 39.2904 ] } },
{ "type": "Feature", "properties": { "Name": "Philadelphia", "Latitude": 39.9526, "Longitude": -75.1652 }, "geometry": { "type": "Point", "coordinates": [ -75.1652, 39.9526 ] } },
{ "type": "Feature", "properties": { "Name": "New York", "Latitude": 40.7128, "Longitude": -74.006 }, "geometry": { "type": "Point", "coordinates": [ -74.006, 40.7128 ] } },
{ "type": "Feature", "properties": { "Name": "Pittsburgh", "Latitude": 40.4406, "Longitude": -79.9959 }, "geometry": { "type": "Point", "coordinates": [ -79.9959, 40.4406 ] } },
{ "type": "Feature", "properties": { "Name": "Cleveland", "Latitude": 41.4993, "Longitude": -81.6944 }, "geometry": { "type": "Point", "coordinates": [ -81.6944, 41.4993 ] } },
{ "type": "Feature", "properties": { "Name": "Columbus", "Latitude": 39.9612, "Longitude": -82.9988 }, "geometry": { "type": "Point", "coordinates": [ -82.9988, 39.9612 ] } },
{ "type": "Feature", "properties": { "Name": "Charlotte", "Latitude": 35.2271, "Longitude": -80.8431 }, "geometry": { "type": "Point", "coordinates": [ -80.8431, 35.2271 ] } }
]
}
